[
  {
    "plate": "34 ABC 123",
    "vehicleType": "Kamyonet",
    "deliveryNo": "DLV20250701",
    "lat": 39.57,
    "lng": 31.00,
    "startCity": "İstanbul",
    "startLat": 41.0082,
    "startLng": 28.9784,
    "endCity": "Antalya",
    "endLat": 36.8969,
    "endLng": 30.7133,
    "status": "Yolda",
    "progress": 40,
    "cargoType": "Elektronik",
    "customerName": "Oğuzhan Boz",
    "deliveryAddress": "Konyaaltı, Antalya",
    "steps": [
      { "label": "Teslimat oluşturuldu", "timestamp": "2025-07-01 09:00" },
      { "label": "Yüklendi", "timestamp": "2025-07-01 12:30" },
      { "label": "Yola çıktı", "timestamp": "2025-07-01 13:00" }
    ]
  },
  {
    "plate": "06 DEF 456",
    "vehicleType": "Tır",
    "deliveryNo": "DLV20250702",
    "lat": 38.5,
    "lng": 32.0,
    "startCity": "Ankara",
    "startLat": 39.9208,
    "startLng": 32.8541,
    "endCity": "İzmir",
    "endLat": 38.4192,
    "endLng": 27.1287,
    "status": "Yükleme Bekliyor",
    "progress": 0,
    "cargoType": "Mobilya",
    "customerName": "Ayşe Demir",
    "deliveryAddress": "Bornova, İzmir",
    "steps": []
  },
  {
    "plate": "35 GHI 789",
    "vehicleType": "Panelvan",
    "deliveryNo": "DLV20250703",
    "lat": 36.2,
    "lng": 30.5,
    "startCity": "İzmir",
    "startLat": 38.4192,
    "startLng": 27.1287,
    "endCity": "Mersin",
    "endLat": 36.8121,
    "endLng": 34.6415,
    "status": "Teslim Edildi",
    "progress": 100,
    "cargoType": "Gıda",
    "customerName": "Mehmet Kaya",
    "deliveryAddress": "Mezitli, Mersin",
    "steps": [
      { "label": "Teslimat oluşturuldu", "timestamp": "2025-06-29 08:00" },
      { "label": "Yüklendi", "timestamp": "2025-06-29 11:00" },
      { "label": "Yola çıktı", "timestamp": "2025-06-29 12:00" },
      { "label": "Teslim edildi", "timestamp": "2025-07-01 15:45" }
    ]
  }
]
